%time,field.header.seq,field.header.stamp,field.header.frame_id,field.child_frame_id,field.transform.translation.x,field.transform.translation.y,field.transform.translation.z,field.transform.rotation.x,field.transform.rotation.y,field.transform.rotation.z,field.transform.rotation.w
1555095669489560969,21,1555095669475322326,/world,vicon/SUMO_11_5_2018/SUMO_11_5_2018,0.157309074889,0.606835472159,0.104382196117,-0.0139512605307,-0.0055189836221,0.450386470338,0.892707639984
1555095669499513209,22,1555095669485310855,/world,vicon/SUMO_11_5_2018/SUMO_11_5_2018,0.157305221792,0.606833078417,0.104377542678,-0.0143156260924,-0.00495450981908,0.450368121935,0.892714439463
1555095669509724121,23,1555095669495446276,/world,vicon/SUMO_11_5_2018/SUMO_11_5_2018,0.157294500059,0.60683041198,0.104396473924,-0.0142868084255,-0.00487254439061,0.450417555865,0.892690411501
1555095669519668028,24,1555095669505342737,/world,vicon/SUMO_11_5_2018/SUMO_11_5_2018,0.157289376603,0.606856251404,0.104426137691,-0.0138708142426,-0.0049616998022,0.450393596284,0.892708569733
1555095669529659393,25,1555095669515358916,/world,vicon/SUMO_11_5_2018/SUMO_11_5_2018,0.157290076427,0.606854849833,0.104436757109,-0.0135538288814,-0.00536792820875,0.450427899297,0.892693780982
1555095669539622156,26,1555095669525398947,/world,vicon/SUMO_11_5_2018/SUMO_11_5_2018,0.157300096797,0.606861979607,0.104436494222,-0.0130686908799,-0.00599244538195,0.450339259737,0.892741760565
1555095669549702742,27,1555095669535317841,/world,vicon/SUMO_11_5_2018/SUMO_11_5_2018,0.157321233803,0.606860750047,0.104401663775,-0.0131708722975,-0.00540400707072,0.450284260279,0.89277175682
1555095669559598220,28,1555095669545343923,/world,vicon/SUMO_11_5_2018/SUMO_11_5_2018,0.157327330341,0.606864247249,0.104379922447,-0.0134191883999,-0.00494605386153,0.450283513366,0.892771090216
1555095669569561335,29,1555095669555311919,/world,vicon/SUMO_11_5_2018/SUMO_11_5_2018,0.157321035838,0.6068605092,0.104380113935,-0.0134584935469,-0.00458845140799,0.450341579843,0.892743119004
1555095669579649390,30,1555095669565300686,/world,vicon/SUMO_11_5_2018/SUMO_11_5_2018,0.157295888852,0.606852596198,0.104413106785,-0.0133628389662,-0.00534367518006,0.450359158672,0.892731486994
1555095669589543192,31,1555095669575336431,/world,vicon/SUMO_11_5_2018/SUMO_11_5_2018,0.157289705526,0.606845582009,0.104437658226,-0.0132246834855,-0.00551344116768,0.450342270585,0.89274103134
1555095669599414820,32,1555095669585296080,/world,vicon/SUMO_11_5_2018/SUMO_11_5_2018,0.157290825044,0.606844123496,0.104443796619,-0.0132060719659,-0.00579816392823,0.450315477177,0.892753018462
1555095669609520806,33,1555095669595360381,/world,vicon/SUMO_11_5_2018/SUMO_11_5_2018,0.157308498206,0.606863720373,0.104428660051,-0.0137617501139,-0.00514774693933,0.449966325454,0.892924644577
1555095669619598485,34,1555095669605350176,/world,vicon/SUMO_11_5_2018/SUMO_11_5_2018,0.15731264955,0.606868823883,0.104417871797,-0.013471864608,-0.00547601857798,0.449994769397,0.892912778271
1555095669629711442,35,1555095669615310838,/world,vicon/SUMO_11_5_2018/SUMO_11_5_2018,0.157317722815,0.606862615864,0.104407344258,-0.0136199001127,-0.00516197787624,0.449957684584,0.892931091624
1555095669639572848,36,1555095669625395090,/world,vicon/SUMO_11_5_2018/SUMO_11_5_2018,0.157307073406,0.606845609199,0.104400962028,-0.0136015296754,-0.00543198498295,0.450234573776,0.892790188402
1555095669649542430,37,1555095669635348952,/world,vicon/SUMO_11_5_2018/SUMO_11_5_2018,0.157303468787,0.606819736586,0.104401974123,-0.0137479084396,-0.00566963356984,0.450417610293,0.892694139449
1555095669659497218,38,1555095669645353152,/world,vicon/SUMO_11_5_2018/SUMO_11_5_2018,0.15730037001,0.606804112358,0.10439833341,-0.01409262399,-0.00550993431752,0.450568902444,0.892613411687
1555095669669626167,39,1555095669655401185,/world,vicon/SUMO_11_5_2018/SUMO_11_5_2018,0.157310814452,0.606808250271,0.104395308029,-0.0137518532739,-0.00513219467399,0.450684526015,0.892562605714
1555095669679685199,40,1555095669665358645,/world,vicon/SUMO_11_5_2018/SUMO_11_5_2018,0.157313512102,0.606809321502,0.104376161999,-0.0142899531171,-0.0044645721045,0.450735030654,0.892532238621
1555095669689699910,41,1555095669675365126,/world,vicon/SUMO_11_5_2018/SUMO_11_5_2018,0.157311977916,0.606842907125,0.104374644872,-0.0142036583811,-0.00461228218669,0.450575339708,0.89261349205
1555095669699688115,42,1555095669685345178,/world,vicon/SUMO_11_5_2018/SUMO_11_5_2018,0.157311940437,0.606843815593,0.104369464736,-0.0142704710227,-0.00434456853916,0.450539104482,0.892632059537
1555095669709699056,43,1555095669695460202,/world,vicon/SUMO_11_5_2018/SUMO_11_5_2018,0.15732447405,0.606870636912,0.104380143796,-0.0136432504933,-0.0038711558011,0.450417498999,0.892705411916
1555095669719748746,44,1555095669705350141,/world,vicon/SUMO_11_5_2018/SUMO_11_5_2018,0.15732600582,0.60686182951,0.10439570367,-0.0132309984623,-0.00411806733004,0.45040136604,0.892718652023
1555095669729608441,45,1555095669715353164,/world,vicon/SUMO_11_5_2018/SUMO_11_5_2018,0.157320100857,0.60686520783,0.104424197533,-0.0129259200155,-0.0052391691812,0.450329423819,0.892753539192
1555095669739609939,46,1555095669725332659,/world,vicon/SUMO_11_5_2018/SUMO_11_5_2018,0.15730752555,0.606860964301,0.104429611528,-0.0134065507064,-0.00581482718465,0.450311311697,0.892752023095
1555095669749522580,47,1555095669735334043,/world,vicon/SUMO_11_5_2018/SUMO_11_5_2018,0.157308284592,0.606865557448,0.104415609888,-0.0138208323715,-0.00523089008798,0.450444492068,0.892682128166
1555095669759627055,48,1555095669745336419,/world,vicon/SUMO_11_5_2018/SUMO_11_5_2018,0.157314352771,0.606870235121,0.104393343737,-0.014353025207,-0.00469593767597,0.450199275665,0.892800398201
1555095669769603876,49,1555095669755339203,/world,vicon/SUMO_11_5_2018/SUMO_11_5_2018,0.157317327852,0.606870692284,0.104392903125,-0.0138664402265,-0.00495076581892,0.450092350351,0.892860620651
1555095669779834338,50,1555095669765411307,/world,vicon/SUMO_11_5_2018/SUMO_11_5_2018,0.157321684217,0.606868436384,0.104404081972,-0.0135612455918,-0.00533216598196,0.449958098613,0.892930775658
1555095669789531121,51,1555095669775328896,/world,vicon/SUMO_11_5_2018/SUMO_11_5_2018,0.157314363727,0.606832291571,0.104413319959,-0.0129561758025,-0.00604122622568,0.45034842756,0.892738447076
1555095669799490622,52,1555095669785341755,/world,vicon/SUMO_11_5_2018/SUMO_11_5_2018,0.157313034519,0.606842304755,0.104421532125,-0.0134849953707,-0.00532434290416,0.450369550843,0.892724522989
1555095669809539560,53,1555095669795326250,/world,vicon/SUMO_11_5_2018/SUMO_11_5_2018,0.157315489393,0.606855139224,0.104414501022,-0.0139192878365,-0.00478283196877,0.450224267754,0.892794201745
1555095669819707744,54,1555095669805334152,/world,vicon/SUMO_11_5_2018/SUMO_11_5_2018,0.157327390629,0.60689151438,0.104402734034,-0.0143215290303,-0.00435685142644,0.449933709029,0.892936486617
1555095669829604526,55,1555095669815342289,/world,vicon/SUMO_11_5_2018/SUMO_11_5_2018,0.15733056886,0.60686933027,0.10438374407,-0.0141005058777,-0.00502661557199,0.450085838791,0.892859813515
1555095669839527246,56,1555095669825335749,/world,vicon/SUMO_11_5_2018/SUMO_11_5_2018,0.157328629352,0.606831819942,0.104380024935,-0.0134866651643,-0.00616226228508,0.450421322239,0.892692986899
1555095669849541922,57,1555095669835360476,/world,vicon/SUMO_11_5_2018/SUMO_11_5_2018,0.157332311519,0.606816515578,0.104393027061,-0.0133276724086,-0.00650837774089,0.450269421902,0.892769545777
1555095669859511080,58,1555095669845357410,/world,vicon/SUMO_11_5_2018/SUMO_11_5_2018,0.15735852108,0.606834311137,0.104408873306,-0.0130626178266,-0.00685129306278,0.44962318503,0.893096534134
1555095669869707698,59,1555095669855371717,/world,vicon/SUMO_11_5_2018/SUMO_11_5_2018,0.157435100365,0.606921027153,0.104405452496,-0.0132227409934,-0.00702475013384,0.448720231461,0.893546845937
1555095669879921050,60,1555095669865416502,/world,vicon/SUMO_11_5_2018/SUMO_11_5_2018,0.157552803829,0.607071726959,0.104398789193,-0.012771723402,-0.00781014877631,0.448016285419,0.893900046234
1555095669889527767,61,1555095669875330912,/world,vicon/SUMO_11_5_2018/SUMO_11_5_2018,0.157682757188,0.607279883906,0.104390468688,-0.0125821499258,-0.00865286482226,0.447326025525,0.89424059644
1555095669899451825,62,1555095669885333843,/world,vicon/SUMO_11_5_2018/SUMO_11_5_2018,0.157811355531,0.607516108655,0.10442475529,-0.0112047487863,-0.00976478442977,0.446189486972,0.894815089449
1555095669909581942,63,1555095669895399262,/world,vicon/SUMO_11_5_2018/SUMO_11_5_2018,0.157958115709,0.607787698773,0.104453117663,-0.0102878240423,-0.0106605831081,0.44473107803,0.895541613147
1555095669919647413,64,1555095669905362822,/world,vicon/SUMO_11_5_2018/SUMO_11_5_2018,0.158165346287,0.608088757624,0.104485073516,-0.0090303322351,-0.0118607140735,0.442867855319,0.896462960354
1555095669929467111,65,1555095669915340685,/world,vicon/SUMO_11_5_2018/SUMO_11_5_2018,0.15838773118,0.608423220022,0.104472050163,-0.00921148964697,-0.0121222787771,0.441163410215,0.897297634179
1555095669939395953,66,1555095669925321007,/world,vicon/SUMO_11_5_2018/SUMO_11_5_2018,0.158605551457,0.608773251835,0.104470191659,-0.00916221242134,-0.0125438194425,0.438950595612,0.898376914813
1555095669949763523,67,1555095669935363864,/world,vicon/SUMO_11_5_2018/SUMO_11_5_2018,0.158831009345,0.609158004765,0.104484381149,-0.0094023217694,-0.0119766140346,0.436863591681,0.899398887772
1555095669959453463,68,1555095669945323896,/world,vicon/SUMO_11_5_2018/SUMO_11_5_2018,0.159078943986,0.609572451868,0.10451416254,-0.00939112713771,-0.0116097343636,0.434558980106,0.900519579803
1555095669969715478,69,1555095669955421065,/world,vicon/SUMO_11_5_2018/SUMO_11_5_2018,0.159389198651,0.610032249783,0.104521488947,-0.00925828001213,-0.0120075140594,0.432030782717,0.901731393843
1555095669979500286,70,1555095669965387875,/world,vicon/SUMO_11_5_2018/SUMO_11_5_2018,0.159720000667,0.610558854516,0.104499301775,-0.00923276732465,-0.0128550756587,0.428545776973,0.903381436646
1555095669989572273,71,1555095669975361441,/world,vicon/SUMO_11_5_2018/SUMO_11_5_2018,0.160085371674,0.611101598605,0.104461728401,-0.00899397960256,-0.0147471335698,0.424557049469,0.905236401239
1555095669999490474,72,1555095669985360461,/world,vicon/SUMO_11_5_2018/SUMO_11_5_2018,0.160434962967,0.611653154239,0.104459705324,-0.00929464105176,-0.0147031664366,0.420874258718,0.906952195484
1555095670009607113,73,1555095669995496874,/world,vicon/SUMO_11_5_2018/SUMO_11_5_2018,0.16079368024,0.612196388015,0.104479680489,-0.00944454350221,-0.0140066978088,0.417394167173,0.908568501669
1555095670019713375,74,1555095670005375837,/world,vicon/SUMO_11_5_2018/SUMO_11_5_2018,0.161163155048,0.612750956072,0.104519297985,-0.00991731997987,-0.0117890077928,0.414071348021,0.91011405044
1555095670029499290,75,1555095670015369335,/world,vicon/SUMO_11_5_2018/SUMO_11_5_2018,0.161572304266,0.613353272027,0.104526860765,-0.00988975712815,-0.0111338313933,0.410215036685,0.911867234953
1555095670039472794,76,1555095670025347705,/world,vicon/SUMO_11_5_2018/SUMO_11_5_2018,0.162023261772,0.61397612555,0.104525363933,-0.00960151820541,-0.0122414177856,0.406173674715,0.91366345254
1555095670049443229,77,1555095670035386636,/world,vicon/SUMO_11_5_2018/SUMO_11_5_2018,0.162500297578,0.614656729029,0.104510187145,-0.00937584671114,-0.0135164228232,0.401436407157,0.915739160908
1555095670059543036,78,1555095670045363552,/world,vicon/SUMO_11_5_2018/SUMO_11_5_2018,0.16302598818,0.615296548609,0.104491155779,-0.00903765752992,-0.0153448790744,0.396943830275,0.917670121034
1555095670069440135,79,1555095670055325420,/world,vicon/SUMO_11_5_2018/SUMO_11_5_2018,0.163584399426,0.615974261837,0.104471973514,-0.008757701502,-0.01653492942,0.392536867183,0.91954592418
1555095670079501097,80,1555095670065367864,/world,vicon/SUMO_11_5_2018/SUMO_11_5_2018,0.164206240188,0.616693756869,0.104460954136,-0.00855927664521,-0.0164777169763,0.389281245491,0.920931775722
1555095670089548825,81,1555095670075354727,/world,vicon/SUMO_11_5_2018/SUMO_11_5_2018,0.164782841206,0.617428574657,0.104501561399,-0.00910169514962,-0.0135285139457,0.385692596555,0.922483256986
1555095670099394602,82,1555095670085309691,/world,vicon/SUMO_11_5_2018/SUMO_11_5_2018,0.165297132386,0.618071709819,0.104550164133,-0.010015559796,-0.00961381498825,0.382696924422,0.923769628837
1555095670109630003,83,1555095670095369768,/world,vicon/SUMO_11_5_2018/SUMO_11_5_2018,0.165721200148,0.618559819336,0.104571653187,-0.0102067140399,-0.00714579506675,0.38024037751,0.924803771571
1555095670119760013,84,1555095670105360018,/world,vicon/SUMO_11_5_2018/SUMO_11_5_2018,0.166098216016,0.618934039303,0.104558260801,-0.00998089796839,-0.00685252545481,0.379420698657,0.925145047007
1555095670129391055,85,1555095670115323905,/world,vicon/SUMO_11_5_2018/SUMO_11_5_2018,0.1663801598,0.619195427029,0.10457524374,-0.0100337842661,-0.00767310238271,0.379075435492,0.925279558231
1555095670139505072,86,1555095670125325944,/world,vicon/SUMO_11_5_2018/SUMO_11_5_2018,0.166517408862,0.619284276863,0.104561224838,-0.0100805221456,-0.00846396758372,0.378870452485,0.925356106891
1555095670149407607,87,1555095670135360531,/world,vicon/SUMO_11_5_2018/SUMO_11_5_2018,0.166470018536,0.619243542067,0.104556582657,-0.0101987720617,-0.00946742507018,0.378787434922,0.925379074788
1555095670159476154,88,1555095670145338601,/world,vicon/SUMO_11_5_2018/SUMO_11_5_2018,0.166222563804,0.619009771431,0.104511658541,-0.0100066310957,-0.0097413950003,0.378553944229,0.925473869899
1555095670169420862,89,1555095670155345268,/world,vicon/SUMO_11_5_2018/SUMO_11_5_2018,0.16583391792,0.618677489859,0.104466403777,-0.0120181068107,-0.00928683758172,0.37900080073,0.925271696748
1555095670179701185,90,1555095670165358514,/world,vicon/SUMO_11_5_2018/SUMO_11_5_2018,0.16546234216,0.618310480631,0.104430934031,-0.0141087501627,-0.0077826047983,0.379438872583,0.925076492083
1555095670189426396,91,1555095670175326461,/world,vicon/SUMO_11_5_2018/SUMO_11_5_2018,0.165233907654,0.618098471378,0.10437665939,-0.0159875967419,-0.00688496551889,0.380330517655,0.924686807163
1555095670199398387,92,1555095670185316373,/world,vicon/SUMO_11_5_2018/SUMO_11_5_2018,0.165182793954,0.618057972687,0.104361845664,-0.0160680150074,-0.00693319826889,0.38044903858,0.924636295361
1555095670209584823,93,1555095670195386532,/world,vicon/SUMO_11_5_2018/SUMO_11_5_2018,0.165239152997,0.618109484755,0.104319209703,-0.0156836679249,-0.00813495420127,0.380106968068,0.924773776611
1555095670219504991,94,1555095670205355367,/world,vicon/SUMO_11_5_2018/SUMO_11_5_2018,0.165314673007,0.618192142756,0.104435158855,-0.0240158680918,0.0125171000839,0.380345598053,0.924447827802
1555095670229500544,95,1555095670215326724,/world,vicon/SUMO_11_5_2018/SUMO_11_5_2018,0.16538368681,0.618272723415,0.104606592353,-0.0290891711362,0.0280012298017,0.380245612101,0.924003801794
1555095670239690276,96,1555095670225433751,/world,vicon/SUMO_11_5_2018/SUMO_11_5_2018,0.165394885824,0.618243563165,0.104630119477,-0.0301581987411,0.0311998730347,0.380623194898,0.923711553721
1555095670249547382,97,1555095670235351015,/world,vicon/SUMO_11_5_2018/SUMO_11_5_2018,0.165366582566,0.61822338154,0.104651823196,-0.0298247925065,0.0312473974907,0.380779477209,0.923656360146
1555095670259593943,98,1555095670245339256,/world,vicon/SUMO_11_5_2018/SUMO_11_5_2018,0.165305512423,0.618158783088,0.104612158824,-0.0308197042647,0.0313496322414,0.381334923343,0.923391045347
1555095670269516271,99,1555095670255350150,/world,vicon/SUMO_11_5_2018/SUMO_11_5_2018,0.165261201925,0.618170956385,0.104682698147,-0.0342483575467,0.0395460168036,0.381414723049,0.922922516575
1555095670279550717,100,1555095670265389188,/world,vicon/SUMO_11_5_2018/SUMO_11_5_2018,0.165265517147,0.618153737747,0.104573396721,-0.0289824171194,0.0253504106467,0.381149738746,0.92371113062
1555095670289554050,101,1555095670275339072,/world,vicon/SUMO_11_5_2018/SUMO_11_5_2018,0.16530444998,0.618117688666,0.104430155299,-0.0231399855046,0.00996152050337,0.380615527972,0.924390138982
1555095670299456987,102,1555095670285343015,/world,vicon/SUMO_11_5_2018/SUMO_11_5_2018,0.165333030224,0.618163788079,0.104473897722,-0.0271192196907,0.0197478365107,0.380556457956,0.924148988629
1555095670309589021,103,1555095670295286417,/world,vicon/SUMO_11_5_2018/SUMO_11_5_2018,0.165345731576,0.618167575801,0.104544917626,-0.0305055539629,0.029028953031,0.380964635842,0.92363016262
1555095670319740324,104,1555095670305338161,/world,vicon/SUMO_11_5_2018/SUMO_11_5_2018,0.165447579341,0.618640641325,0.105241951275,-0.0421597629991,0.0739957309262,0.37922442609,0.921377241332
1555095670329654147,105,1555095670315345351,/world,vicon/SUMO_11_5_2018/SUMO_11_5_2018,0.165397541339,0.618605818045,0.105283350936,-0.0434234455008,0.0775758719301,0.379408551266,0.920948174275
1555095670339632743,106,1555095670325378485,/world,vicon/SUMO_11_5_2018/SUMO_11_5_2018,0.165379109281,0.618596387889,0.105274439941,-0.0427799949985,0.0756639532079,0.379354052444,0.921159780444
1555095670349389745,107,1555095670335353061,/world,vicon/SUMO_11_5_2018/SUMO_11_5_2018,0.165245166247,0.618151876781,0.104638920745,-0.0339849735847,0.0380023006553,0.381252981521,0.923063925629
1555095670359549695,108,1555095670345348021,/world,vicon/SUMO_11_5_2018/SUMO_11_5_2018,0.165294138897,0.618117916944,0.104456467689,-0.0245941658558,0.013974736337,0.380922449209,0.924174183495
1555095670369646331,109,1555095670355388723,/world,vicon/SUMO_11_5_2018/SUMO_11_5_2018,0.16531071918,0.61815047975,0.104485038629,-0.0272860385388,0.0205526040251,0.380776944445,0.924035703394
1555095670379455657,110,1555095670365343252,/world,vicon/SUMO_11_5_2018/SUMO_11_5_2018,0.165329948621,0.618128648025,0.104506962763,-0.0284309394485,0.0235829497481,0.38108683926,0.923801032207
1555095670389445093,111,1555095670375343554,/world,vicon/SUMO_11_5_2018/SUMO_11_5_2018,0.165325574478,0.618166531315,0.104646536088,-0.0360013416362,0.0446311820688,0.381296769989,0.922672604006
1555095670399655527,112,1555095670385397305,/world,vicon/SUMO_11_5_2018/SUMO_11_5_2018,0.16530087525,0.61814607894,0.104639883087,-0.0343717556976,0.0403787417008,0.381351022416,0.922908195505
1555095670409622606,113,1555095670395395522,/world,vicon/SUMO_11_5_2018/SUMO_11_5_2018,0.165290807562,0.618209317025,0.104720514961,-0.0336989276351,0.0419599604324,0.380996357316,0.923008948878
1555095670419719242,114,1555095670405371775,/world,vicon/SUMO_11_5_2018/SUMO_11_5_2018,0.165298879726,0.618185047446,0.104584471159,-0.0257789555616,0.0203136686241,0.380720433963,0.924107543244
1555095670429538443,115,1555095670415415904,/world,vicon/SUMO_11_5_2018/SUMO_11_5_2018,0.165344422114,0.618160180472,0.10444586707,-0.0191513224323,0.00390056815941,0.380511515031,0.924569629258
1555095670439504099,116,1555095670425374554,/world,vicon/SUMO_11_5_2018/SUMO_11_5_2018,0.165356066386,0.618151937957,0.104434689613,-0.0238358023302,0.0125384459513,0.380657838597,0.924323672647
1555095670449708098,117,1555095670435360130,/world,vicon/SUMO_11_5_2018/SUMO_11_5_2018,0.165339986108,0.618197521149,0.104587739257,-0.0322687682822,0.0337827817546,0.380854412381,0.923454041531
1555095670459651859,118,1555095670445395050,/world,vicon/SUMO_11_5_2018/SUMO_11_5_2018,0.165309519199,0.618216518561,0.104710715199,-0.0385566845507,0.0497780507866,0.381000064048,0.922428576602
1555095670469694047,119,1555095670455403755,/world,vicon/SUMO_11_5_2018/SUMO_11_5_2018,0.165293778662,0.618212962197,0.104720187489,-0.0384371554212,0.0497062439594,0.381021711087,0.922428495914
1555095670479580926,120,1555095670465417667,/world,vicon/SUMO_11_5_2018/SUMO_11_5_2018,0.165288067089,0.618194225009,0.1046910027,-0.0364916507376,0.0447428673522,0.38121153819,0.922683151682
1555095670489696325,121,1555095670475396005,/world,vicon/SUMO_11_5_2018/SUMO_11_5_2018,0.165291033817,0.618156809197,0.104616338178,-0.0330065322,0.0356993410502,0.381257464838,0.923189510007
1555095670499457820,122,1555095670485357038,/world,vicon/SUMO_11_5_2018/SUMO_11_5_2018,0.165301890277,0.618164570973,0.104607090628,-0.0332021999571,0.0360250685978,0.381327226592,0.923141026393
1555095670509622627,123,1555095670495447185,/world,vicon/SUMO_11_5_2018/SUMO_11_5_2018,0.165308341837,0.618169207754,0.104610287454,-0.03341142947,0.036310963274,0.381311664831,0.923128704239
1555095670519763153,124,1555095670505377349,/world,vicon/SUMO_11_5_2018/SUMO_11_5_2018,0.16530702986,0.618228583446,0.104714863018,-0.038918419435,0.0504179483687,0.381154893049,0.922314661391
1555095670529507689,125,1555095670515380382,/world,vicon/SUMO_11_5_2018/SUMO_11_5_2018,0.165297082745,0.618196040468,0.104657411796,-0.034921385468,0.040421124084,0.381315512005,0.922900379168
1555095670539560567,126,1555095670525367913,/world,vicon/SUMO_11_5_2018/SUMO_11_5_2018,0.165288728919,0.618214918713,0.104689620642,-0.0366801286149,0.0453474495434,0.381163641107,0.922665950213
1555095670549469105,127,1555095670535359327,/world,vicon/SUMO_11_5_2018/SUMO_11_5_2018,0.165408554132,0.61863246982,0.105229959587,-0.0411980378233,0.0710590172722,0.379251396559,0.921640773811
1555095670559681569,128,1555095670545375775,/world,vicon/SUMO_11_5_2018/SUMO_11_5_2018,0.165419373765,0.618663900915,0.10528562152,-0.0450275895916,0.0805708423728,0.378938944441,0.920807326166
1555095670569783202,129,1555095670555342767,/world,vicon/SUMO_11_5_2018/SUMO_11_5_2018,0.165430180844,0.618649224442,0.10525042743,-0.0430404728037,0.0753243711267,0.379217221269,0.921231814425
1555095670579614827,130,1555095670565426820,/world,vicon/SUMO_11_5_2018/SUMO_11_5_2018,0.165312206248,0.618202060221,0.10464621575,-0.0346176395798,0.0395732662868,0.3811848512,0.92300253783
1555095670589613552,131,1555095670575358292,/world,vicon/SUMO_11_5_2018/SUMO_11_5_2018,0.165436351175,0.618617049269,0.105187386021,-0.0390916464518,0.0656618574449,0.379476426327,0.92204013227
1555095670599560311,132,1555095670585338498,/world,vicon/SUMO_11_5_2018/SUMO_11_5_2018,0.165430218418,0.618619737106,0.105216421647,-0.0409507525924,0.0706474748971,0.379268924766,0.921676219103
1555095670609623874,133,1555095670595428311,/world,vicon/SUMO_11_5_2018/SUMO_11_5_2018,0.165418213209,0.618634287674,0.105261338825,-0.0429018264599,0.0753525273223,0.379397926805,0.921161572716
1555095670619531032,134,1555095670605374971,/world,vicon/SUMO_11_5_2018/SUMO_11_5_2018,0.165420654852,0.618630475687,0.1052565339,-0.0426576869562,0.0748187867198,0.379400618232,0.921215306963
1555095670629528063,135,1555095670615357612,/world,vicon/SUMO_11_5_2018/SUMO_11_5_2018,0.165552685393,0.61906168272,0.105789757918,-0.0472924042396,0.100620278104,0.377027599372,0.919504854499
1555095670639481372,136,1555095670625342816,/world,vicon/SUMO_11_5_2018/SUMO_11_5_2018,0.165562354955,0.6190600172,0.105766972415,-0.0473583384404,0.100876167959,0.376871691321,0.91953733736
1555095670649457692,137,1555095670635355855,/world,vicon/SUMO_11_5_2018/SUMO_11_5_2018,0.165431128229,0.618621209357,0.105167539111,-0.039392866513,0.0657196530088,0.379116025002,0.922171442229
1555095670659601465,138,1555095670645378489,/world,vicon/SUMO_11_5_2018/SUMO_11_5_2018,0.165302120397,0.618171515038,0.104541314877,-0.029424173634,0.0261351849174,0.380994612665,0.923739289646
1555095670669605410,139,1555095670655318189,/world,vicon/SUMO_11_5_2018/SUMO_11_5_2018,0.165302286462,0.618178688104,0.10457973,-0.0313140737813,0.0316985088876,0.380975359441,0.923510914292
1555095670679559090,140,1555095670665405088,/world,vicon/SUMO_11_5_2018/SUMO_11_5_2018,0.165302516927,0.618176582588,0.104627232815,-0.0333210072484,0.036881915908,0.381179579759,0.923163887254
1555095670689573547,141,1555095670675361739,/world,vicon/SUMO_11_5_2018/SUMO_11_5_2018,0.16530116445,0.61817640163,0.104664495257,-0.0350060916474,0.0413153637032,0.381313637923,0.922858344387
1555095670699432268,142,1555095670685328916,/world,vicon/SUMO_11_5_2018/SUMO_11_5_2018,0.165302723417,0.61815641567,0.104577226395,-0.0295960186533,0.0271573983117,0.381244226482,0.923601316138
1555095670709542414,143,1555095670695424664,/world,vicon/SUMO_11_5_2018/SUMO_11_5_2018,0.165318988115,0.618159588068,0.104481790284,-0.0249225301146,0.0154238091175,0.380881252355,0.924159318089
1555095670719597155,144,1555095670705378213,/world,vicon/SUMO_11_5_2018/SUMO_11_5_2018,0.165346344878,0.618136091774,0.104374411531,-0.0201041276506,0.00312697426428,0.380527523386,0.924545753345
1555095670729523447,145,1555095670715380831,/world,vicon/SUMO_11_5_2018/SUMO_11_5_2018,0.16547906146,0.618568964304,0.104985671951,-0.0299606661249,0.0427025131652,0.379141195765,0.923867310564
1555095670739560388,146,1555095670725344379,/world,vicon/SUMO_11_5_2018/SUMO_11_5_2018,0.165462044355,0.618540171846,0.105040284439,-0.0328862274416,0.049478047307,0.379421460607,0.923314558593
1555095670749481564,147,1555095670735360477,/world,vicon/SUMO_11_5_2018/SUMO_11_5_2018,0.165430031587,0.618592143127,0.105209518377,-0.0413582667985,0.0706935204545,0.379410804979,0.921596094283
1555095670759459525,148,1555095670745330935,/world,vicon/SUMO_11_5_2018/SUMO_11_5_2018,0.165290525274,0.618186620708,0.104695704482,-0.0369153540517,0.0448037714178,0.381338517612,0.922610867965
1555095670769523771,149,1555095670755360928,/world,vicon/SUMO_11_5_2018/SUMO_11_5_2018,0.165420223454,0.618653703491,0.105293508216,-0.0450206974207,0.0803897896945,0.3791664826,0.920729817584
1555095670779403410,150,1555095670765359445,/world,vicon/SUMO_11_5_2018/SUMO_11_5_2018,0.165558356418,0.619061288708,0.10581371377,-0.049700489512,0.106776215873,0.376822466197,0.918767397133
1555095670789601741,151,1555095670775348025,/world,vicon/SUMO_11_5_2018/SUMO_11_5_2018,0.16556568945,0.619003993472,0.105723900593,-0.0459182978852,0.0968138436523,0.377189809082,0.919916538345
1555095670799488828,152,1555095670785323866,/world,vicon/SUMO_11_5_2018/SUMO_11_5_2018,0.165447573887,0.618527706066,0.105078413696,-0.035942332042,0.0567958487648,0.379447355242,0.922768706085
1555095670809692069,153,1555095670795457211,/world,vicon/SUMO_11_5_2018/SUMO_11_5_2018,0.165314174978,0.618112668294,0.104545306781,-0.0313478830265,0.0313180972998,0.381221419264,0.92342120211
1555095670819555228,154,1555095670805372116,/world,vicon/SUMO_11_5_2018/SUMO_11_5_2018,0.165309704889,0.618149428767,0.104601279873,-0.0332987572039,0.0367654567608,0.381288534237,0.92312434028
1555095670829566523,155,1555095670815381025,/world,vicon/SUMO_11_5_2018/SUMO_11_5_2018,0.16529753112,0.618189837689,0.104624913416,-0.0333730004397,0.0373928624154,0.381316615444,0.923084858217
1555095670839445280,156,1555095670825337669,/world,vicon/SUMO_11_5_2018/SUMO_11_5_2018,0.165289527711,0.618154021106,0.104515979283,-0.0264170692468,0.0196486963283,0.381161104427,0.923922225978
1555095670849474766,157,1555095670835333187,/world,vicon/SUMO_11_5_2018/SUMO_11_5_2018,0.165315768646,0.618160524025,0.104399386473,-0.0199381216546,0.00327775585412,0.380565957479,0.924533006241
1555095670859590372,158,1555095670845379342,/world,vicon/SUMO_11_5_2018/SUMO_11_5_2018,0.165347122233,0.618167371008,0.104334747194,-0.0168039361804,-0.00472615257773,0.38003077833,0.924809114754
1555095670869362158,159,1555095670855327317,/world,vicon/SUMO_11_5_2018/SUMO_11_5_2018,0.165361882001,0.618212862073,0.10444682372,-0.0237821260282,0.0126704589891,0.38035389498,0.92444836769
1555095670879574314,160,1555095670865368525,/world,vicon/SUMO_11_5_2018/SUMO_11_5_2018,0.165336622422,0.618208846568,0.1045601582,-0.0302816968329,0.0287026171021,0.380799708069,0.923715736005
1555095670889540445,161,1555095670875370760,/world,vicon/SUMO_11_5_2018/SUMO_11_5_2018,0.165306167823,0.618201378392,0.104643401377,-0.0349623277905,0.0404842950124,0.381281286638,0.922910200373
1555095670899530104,162,1555095670885360700,/world,vicon/SUMO_11_5_2018/SUMO_11_5_2018,0.165294909254,0.618181822646,0.104562845797,-0.0295365663201,0.0266489659845,0.381292848174,0.923597957876
1555095670909772301,163,1555095670895490563,/world,vicon/SUMO_11_5_2018/SUMO_11_5_2018,0.165285999192,0.618164196397,0.104477011294,-0.0244551637855,0.0140580607358,0.381015139792,0.924138398262
1555095670919718177,164,1555095670905360684,/world,vicon/SUMO_11_5_2018/SUMO_11_5_2018,0.165304265932,0.618183649396,0.104408017829,-0.0198821684116,0.00321854076823,0.38047303037,0.924572665363
1555095670929535985,165,1555095670915397030,/world,vicon/SUMO_11_5_2018/SUMO_11_5_2018,0.165329965854,0.618186002007,0.104349523484,-0.0168655272697,-0.00400100503,0.380059939152,0.924799431553
1555095670939611272,166,1555095670925392451,/world,vicon/SUMO_11_5_2018/SUMO_11_5_2018,0.165470623809,0.618642934368,0.104987901477,-0.0277917457885,0.038115127416,0.378684845736,0.924322802671
1555095670949714202,167,1555095670935399682,/world,vicon/SUMO_11_5_2018/SUMO_11_5_2018,0.165456434574,0.618648591074,0.105112367535,-0.0362513406901,0.0585389933867,0.378864844668,0.922887022352
1555095670959599919,168,1555095670945367353,/world,vicon/SUMO_11_5_2018/SUMO_11_5_2018,0.165560146435,0.619077256029,0.105784313073,-0.0492235298346,0.105300851398,0.376737949468,0.918997982716
1555095670969681736,169,1555095670955348679,/world,vicon/SUMO_11_5_2018/SUMO_11_5_2018,0.165420704577,0.618653293125,0.105260057462,-0.0450559517481,0.07944756718,0.379016149197,0.920871763021
1555095670979441909,170,1555095670965345359,/world,vicon/SUMO_11_5_2018/SUMO_11_5_2018,0.165419190781,0.618628780309,0.105240740621,-0.0425916664197,0.073620366197,0.379284535228,0.921362704351
1555095670989417715,171,1555095670975358622,/world,vicon/SUMO_11_5_2018/SUMO_11_5_2018,0.165286367115,0.618191291472,0.104643437682,-0.0336260986048,0.0369829884555,0.381179352421,0.923148874963
1555095670999490787,172,1555095670985315921,/world,vicon/SUMO_11_5_2018/SUMO_11_5_2018,0.165290883459,0.618203730763,0.104650845997,-0.0340766654285,0.0382293814987,0.381228730444,0.923061184509
1555095671009634902,173,1555095670995391187,/world,vicon/SUMO_11_5_2018/SUMO_11_5_2018,0.165290201091,0.618213428556,0.104647864697,-0.0346376938745,0.0392930255532,0.3811929178,0.923010426661
1555095671019665441,174,1555095671005352318,/world,vicon/SUMO_11_5_2018/SUMO_11_5_2018,0.165302174089,0.618243578209,0.104707222179,-0.039035010091,0.0498388770389,0.381052165475,0.922383652018
1555095671029532085,175,1555095671015354114,/world,vicon/SUMO_11_5_2018/SUMO_11_5_2018,0.165306891017,0.618223480345,0.104666369083,-0.0368881119193,0.0448621187952,0.38129145364,0.922628573629
1555095671039482154,176,1555095671025347939,/world,vicon/SUMO_11_5_2018/SUMO_11_5_2018,0.165297847425,0.618222057874,0.104640379291,-0.0350085444382,0.0396687256549,0.381240713175,0.922960623558
1555095671049660286,177,1555095671035359870,/world,vicon/SUMO_11_5_2018/SUMO_11_5_2018,0.165291870213,0.618223403883,0.104623686531,-0.0282373301275,0.0262703953092,0.381110790174,0.923724572116
1555095671059573841,178,1555095671045368973,/world,vicon/SUMO_11_5_2018/SUMO_11_5_2018,0.16528826727,0.618232212291,0.104660967048,-0.0301753394205,0.0313492621309,0.380967211802,0.923564105077
1555095671069611200,179,1555095671055350782,/world,vicon/SUMO_11_5_2018/SUMO_11_5_2018,0.165292199214,0.61822833501,0.104692503347,-0.0319668315305,0.0364760461671,0.38106915698,0.923273479169
1555095671079568112,180,1555095671065390421,/world,vicon/SUMO_11_5_2018/SUMO_11_5_2018,0.165422163069,0.618636180873,0.105249567627,-0.0427829553237,0.0752137829724,0.379202393276,0.921258948678
1555095671089566904,181,1555095671075383834,/world,vicon/SUMO_11_5_2018/SUMO_11_5_2018,0.165426439183,0.618641894258,0.105235899315,-0.0427084037165,0.0748321024522,0.379169379725,0.921307077023
1555095671099485626,182,1555095671085363379,/world,vicon/SUMO_11_5_2018/SUMO_11_5_2018,0.165435467516,0.61864504966,0.105227526821,-0.0426280593299,0.074439712062,0.379148708873,0.921351091813
1555095671109666501,183,1555095671095390262,/world,vicon/SUMO_11_5_2018/SUMO_11_5_2018,0.165314140639,0.618227042946,0.104684291878,-0.0383539011356,0.0490016701119,0.381001109966,0.922478167112
1555095671119670432,184,1555095671105420870,/world,vicon/SUMO_11_5_2018/SUMO_11_5_2018,0.165322991841,0.618216840415,0.104683950155,-0.0382205001807,0.0489117621567,0.380690448389,0.922616721827
1555095671129591662,185,1555095671115399971,/world,vicon/SUMO_11_5_2018/SUMO_11_5_2018,0.165327059605,0.6182303328,0.104698981745,-0.0380746768235,0.0488424904847,0.380372406032,0.922757586172
1555095671139497287,186,1555095671125314020,/world,vicon/SUMO_11_5_2018/SUMO_11_5_2018,0.165359517432,0.618226004328,0.104596406495,-0.0314762555796,0.0317613102543,0.379694671375,0.924030530359
1555095671149429913,187,1555095671135324469,/world,vicon/SUMO_11_5_2018/SUMO_11_5_2018,0.165442577991,0.61826490584,0.104461455256,-0.0234559623499,0.011691441075,0.379114635136,0.924978497837
1555095671159560493,188,1555095671145368164,/world,vicon/SUMO_11_5_2018/SUMO_11_5_2018,0.165518734302,0.618276264173,0.104318796985,-0.0170709601359,-0.00444464915104,0.378376245789,0.925483789181
1555095671169591659,189,1555095671155334880,/world,vicon/SUMO_11_5_2018/SUMO_11_5_2018,0.165558652353,0.618289953242,0.104267097024,-0.0154166146437,-0.00857431048364,0.378221802758,0.925546907029
1555095671179682137,190,1555095671165412913,/world,vicon/SUMO_11_5_2018/SUMO_11_5_2018,0.165539361194,0.618249110787,0.104242797677,-0.0154113969695,-0.00953714218504,0.3781428437,0.925569836112
1555095671189556348,191,1555095671175355185,/world,vicon/SUMO_11_5_2018/SUMO_11_5_2018,0.165491508209,0.618260498726,0.104399630895,-0.0241404619051,0.0119041381537,0.378689337522,0.925132377145
1555095671199482447,192,1555095671185324360,/world,vicon/SUMO_11_5_2018/SUMO_11_5_2018,0.165464553093,0.618272922112,0.104528951604,-0.0307242777958,0.0284123385815,0.379251267558,0.924346922873
1555095671209641375,193,1555095671195462642,/world,vicon/SUMO_11_5_2018/SUMO_11_5_2018,0.165435175898,0.618307129542,0.104634105063,-0.0350577118283,0.04029151054,0.379596155842,0.92360939227
1555095671219675465,194,1555095671205388643,/world,vicon/SUMO_11_5_2018/SUMO_11_5_2018,0.165455263955,0.618318341439,0.104546737275,-0.0294866153853,0.0269348433796,0.379342211061,0.924394147879
1555095671229560733,195,1555095671215345389,/world,vicon/SUMO_11_5_2018/SUMO_11_5_2018,0.165446808259,0.618306180678,0.104469007379,-0.024505063992,0.0151776558086,0.379054192956,0.924925434511
1555095671239582183,196,1555095671225340124,/world,vicon/SUMO_11_5_2018/SUMO_11_5_2018,0.165477569458,0.618307737196,0.104392666129,-0.0199758295002,0.00381427211565,0.378511883915,0.925372990366
1555095671249512395,197,1555095671235358051,/world,vicon/SUMO_11_5_2018/SUMO_11_5_2018,0.165499263979,0.618296948081,0.10432498044,-0.0172112233546,-0.0038555313069,0.37810473979,0.925594789537
1555095671259661580,198,1555095671245363355,/world,vicon/SUMO_11_5_2018/SUMO_11_5_2018,0.165528820368,0.618313804035,0.104274824762,-0.015926261527,-0.0081313772554,0.377762020393,0.925730031297
1555095671269686394,199,1555095671255451781,/world,vicon/SUMO_11_5_2018/SUMO_11_5_2018,0.165530781631,0.618275579479,0.104249892516,-0.0163070571241,-0.00828970581843,0.377892502891,0.925668740384
1555095671279666976,200,1555095671265427407,/world,vicon/SUMO_11_5_2018/SUMO_11_5_2018,0.165499521453,0.618286672285,0.104369477665,-0.0219701606778,0.00648892014034,0.378518284062,0.925310280169
1555095671289652122,201,1555095671275371487,/world,vicon/SUMO_11_5_2018/SUMO_11_5_2018,0.165466542553,0.618294965704,0.104498645081,-0.0275213931169,0.021450009447,0.379020917641,0.924730022226
1555095671299496766,202,1555095671285356343,/world,vicon/SUMO_11_5_2018/SUMO_11_5_2018,0.165445093884,0.61831365122,0.104581534233,-0.0305867337575,0.0323559454997,0.379462679396,0.924135065591
1555095671309481887,203,1555095671295351924,/world,vicon/SUMO_11_5_2018/SUMO_11_5_2018,0.165434448548,0.618315675302,0.104590890173,-0.0310834107868,0.0336211692207,0.379407320787,0.9240960575
1555095671319684727,204,1555095671305403722,/world,vicon/SUMO_11_5_2018/SUMO_11_5_2018,0.165440100395,0.618310541807,0.104579958718,-0.0316374309359,0.0344360479465,0.379325514598,0.924080832796
1555095671329544469,205,1555095671315362400,/world,vicon/SUMO_11_5_2018/SUMO_11_5_2018,0.165446072564,0.618324254001,0.104580042808,-0.0326996411229,0.0345159788305,0.379021635141,0.924165559178
1555095671339469752,206,1555095671325346191,/world,vicon/SUMO_11_5_2018/SUMO_11_5_2018,0.165458612573,0.618326410041,0.104565485571,-0.0329686504537,0.0347556805296,0.379049192584,0.924135715336
1555095671349524690,207,1555095671335388694,/world,vicon/SUMO_11_5_2018/SUMO_11_5_2018,0.165460891708,0.618332438724,0.104549585854,-0.031120421044,0.0305848084736,0.37908862273,0.924331058118
1555095671359519713,208,1555095671345335969,/world,vicon/SUMO_11_5_2018/SUMO_11_5_2018,0.165443456808,0.618336872236,0.104552797762,-0.0295548169446,0.0274957514761,0.379095011236,0.924476862286
1555095671369794824,209,1555095671355364783,/world,vicon/SUMO_11_5_2018/SUMO_11_5_2018,0.165429401353,0.618325227897,0.104576833841,-0.0293336643554,0.027625348384,0.379178202796,0.924445924209
1555095671379727726,210,1555095671365387220,/world,vicon/SUMO_11_5_2018/SUMO_11_5_2018,0.165417537081,0.618317862527,0.10458107276,-0.0292783372841,0.027499721595,0.379252199246,0.924421069451
1555095671389591627,211,1555095671375343075,/world,vicon/SUMO_11_5_2018/SUMO_11_5_2018,0.165421089415,0.61832870312,0.104611987233,-0.0328672866137,0.03564184664,0.379178349019,0.924052585016
1555095671399629478,212,1555095671385352311,/world,vicon/SUMO_11_5_2018/SUMO_11_5_2018,0.16543888288,0.618343033815,0.104553027847,-0.031107085014,0.0303231055694,0.37894317638,0.924399766121
1555095671409658894,213,1555095671395412886,/world,vicon/SUMO_11_5_2018/SUMO_11_5_2018,0.16544726751,0.61834539245,0.10454355336,-0.0331475479329,0.0344332374157,0.378787836933,0.924248541691
1555095671419818997,214,1555095671405376727,/world,vicon/SUMO_11_5_2018/SUMO_11_5_2018,0.165452304737,0.618305276443,0.104484926164,-0.029450707718,0.0254460464419,0.378926419291,0.924607983579
1555095671429556490,215,1555095671415362907,/world,vicon/SUMO_11_5_2018/SUMO_11_5_2018,0.165446414183,0.618273609161,0.104515738008,-0.0252594212688,0.0191732716105,0.379095143961,0.924814153827
1555095671439588106,216,1555095671425436024,/world,vicon/SUMO_11_5_2018/SUMO_11_5_2018,0.165433689809,0.618274947445,0.104554497871,-0.0249902214025,0.0196616755429,0.379129183921,0.924797258456
1555095671449535192,217,1555095671435371247,/world,vicon/SUMO_11_5_2018/SUMO_11_5_2018,0.165427327333,0.618266102257,0.104567391299,-0.0249848140081,0.0197138172101,0.379245750757,0.924748498248
1555095671459610993,218,1555095671445405867,/world,vicon/SUMO_11_5_2018/SUMO_11_5_2018,0.165417091045,0.618295847753,0.104614987096,-0.0323502816822,0.0345826766851,0.379485389857,0.923985030525
1555095671469591596,219,1555095671455334837,/world,vicon/SUMO_11_5_2018/SUMO_11_5_2018,0.16542599622,0.618300521818,0.10459276607,-0.0321323436219,0.0336007136341,0.37949837007,0.924023534143
1555095671479621198,220,1555095671465435174,/world,vicon/SUMO_11_5_2018/SUMO_11_5_2018,0.165430247825,0.618345810075,0.10460045661,-0.0335341443187,0.0367163033774,0.379215267666,0.923971403778
1555095671489769483,221,1555095671475387419,/world,vicon/SUMO_11_5_2018/SUMO_11_5_2018,0.16544191282,0.618334107898,0.104552619405,-0.0321702030474,0.0331420873506,0.37882534376,0.924314902513
1555095671499542588,222,1555095671485380329,/world,vicon/SUMO_11_5_2018/SUMO_11_5_2018,0.165454205392,0.618325298818,0.104509492021,-0.0290463684591,0.0254905746409,0.378686748979,0.924717732733
1555095671509607847,223,1555095671495469385,/world,vicon/SUMO_11_5_2018/SUMO_11_5_2018,0.16544997664,0.6183254179,0.104490215831,-0.0267370632812,0.0201737510783,0.378710072138,0.924909093088
1555095671519954398,224,1555095671505375705,/world,vicon/SUMO_11_5_2018/SUMO_11_5_2018,0.16543044672,0.6183300006,0.104521137886,-0.0265790742593,0.0200496454558,0.378955140985,0.924815963124
1555095671529565247,225,1555095671515393309,/world,vicon/SUMO_11_5_2018/SUMO_11_5_2018,0.165421273684,0.618332743703,0.104562195409,-0.0280263331696,0.0236708173156,0.37919928751,0.924587539073
1555095671539468624,226,1555095671525350866,/world,vicon/SUMO_11_5_2018/SUMO_11_5_2018,0.16547117129,0.618387511556,0.104599053841,-0.0257964381597,0.0214954424337,0.378870596966,0.924840289178
1555095671549478081,227,1555095671535332253,/world,vicon/SUMO_11_5_2018/SUMO_11_5_2018,0.165631862954,0.618526181242,0.104520418061,-0.0172392958826,0.00310667576122,0.378164055674,0.925572850855
1555095671559581819,228,1555095671545408276,/world,vicon/SUMO_11_5_2018/SUMO_11_5_2018,0.165871201861,0.618788804186,0.104495124362,-0.0108175394043,-0.00910412353727,0.378651560923,0.92543130009
1555095671569571461,229,1555095671555334483,/world,vicon/SUMO_11_5_2018/SUMO_11_5_2018,0.166144361724,0.619030642855,0.10449937871,-0.00902009848665,-0.0137353989625,0.379397437037,0.925087866858
1555095671579706145,230,1555095671565413265,/world,vicon/SUMO_11_5_2018/SUMO_11_5_2018,0.166383844531,0.61926299498,0.10453277105,-0.00927757002395,-0.0126226405854,0.380826760405,0.924513696058
1555095671589465997,231,1555095671575372682,/world,vicon/SUMO_11_5_2018/SUMO_11_5_2018,0.166589507528,0.619409317569,0.104547206271,-0.00942722043049,-0.0128658663812,0.380847729564,0.924500191392
1555095671599549674,232,1555095671585364406,/world,vicon/SUMO_11_5_2018/SUMO_11_5_2018,0.166739694759,0.619527564366,0.104539028585,-0.00963286027083,-0.0126698788867,0.381140582629,0.924380083324
1555095671609584825,233,1555095671595415361,/world,vicon/SUMO_11_5_2018/SUMO_11_5_2018,0.166831310128,0.619576085248,0.104521521895,-0.00953064796847,-0.0134508666844,0.380700690298,0.924551364361
1555095671619594245,234,1555095671605375571,/world,vicon/SUMO_11_5_2018/SUMO_11_5_2018,0.166845961247,0.619563374289,0.104496725707,-0.00916855309727,-0.0146960329961,0.380320698827,0.924692451733
1555095671629465602,235,1555095671615330426,/world,vicon/SUMO_11_5_2018/SUMO_11_5_2018,0.166795914735,0.619522310191,0.104489645029,-0.00892438426389,-0.0151767167726,0.380071141371,0.924789678862
1555095671639526840,236,1555095671625350957,/world,vicon/SUMO_11_5_2018/SUMO_11_5_2018,0.166722268418,0.619469492205,0.104500681021,-0.00887472280684,-0.0153808087017,0.380237798154,0.924718274327
1555095671649572949,237,1555095671635416428,/world,vicon/SUMO_11_5_2018/SUMO_11_5_2018,0.166680256271,0.619459002902,0.104532951204,-0.00916155306772,-0.0143277750872,0.38037512145,0.924675915004
1555095671659630245,238,1555095671645412510,/world,vicon/SUMO_11_5_2018/SUMO_11_5_2018,0.166695362403,0.619467313599,0.104551624446,-0.00932824521635,-0.0137071625708,0.380611460311,0.924586401487
1555095671669481538,239,1555095671655366711,/world,vicon/SUMO_11_5_2018/SUMO_11_5_2018,0.166742612896,0.619492111248,0.104551214595,-0.00949058674683,-0.0131745180077,0.380490544375,0.924642258649
1555095671679683050,240,1555095671665429876,/world,vicon/SUMO_11_5_2018/SUMO_11_5_2018,0.16675459947,0.61950958175,0.104525647703,-0.00924016331177,-0.0138874271626,0.380532087451,0.924617266316
1555095671689492491,241,1555095671675371083,/world,vicon/SUMO_11_5_2018/SUMO_11_5_2018,0.166743041019,0.619517173821,0.10449865084,-0.00922153859705,-0.0144467348636,0.380456801851,0.924639863408
1555095671699531702,242,1555095671685436850,/world,vicon/SUMO_11_5_2018/SUMO_11_5_2018,0.166721632585,0.619493417049,0.104479343415,-0.00900736493447,-0.0152727938273,0.380478431625,0.924619798736
1555095671709677335,243,1555095671695499762,/world,vicon/SUMO_11_5_2018/SUMO_11_5_2018,0.166717573309,0.619474740216,0.104479850977,-0.00926241525401,-0.0149396597045,0.380452592666,0.924633353803
1555095671719607488,244,1555095671705379947,/world,vicon/SUMO_11_5_2018/SUMO_11_5_2018,0.166723433477,0.619480173482,0.104493456725,-0.00928714967027,-0.0146467096127,0.380244056508,0.924723569635
1555095671729552723,245,1555095671715363313,/world,vicon/SUMO_11_5_2018/SUMO_11_5_2018,0.166723726385,0.619507072529,0.104518395797,-0.00947425511667,-0.0136151422714,0.380244552188,0.924737231284
1555095671739591486,246,1555095671725365759,/world,vicon/SUMO_11_5_2018/SUMO_11_5_2018,0.166729198627,0.619516828278,0.104521094984,-0.00943576937865,-0.0136927092395,0.380213413426,0.924749282898
1555095671749612021,247,1555095671735410725,/world,vicon/SUMO_11_5_2018/SUMO_11_5_2018,0.166725340669,0.619507602848,0.104516301696,-0.00933074787564,-0.0137509322996,0.380288886971,0.924718449828
1555095671759501522,248,1555095671745367833,/world,vicon/SUMO_11_5_2018/SUMO_11_5_2018,0.166729398834,0.619489685976,0.104491414221,-0.00915412485156,-0.0147520705584,0.38013116546,0.924769633724
1555095671769526651,249,1555095671755332956,/world,vicon/SUMO_11_5_2018/SUMO_11_5_2018,0.166728892069,0.61949153116,0.104478854175,-0.00914597072105,-0.015031046513,0.380022014074,0.924810081952
1555095671779519941,250,1555095671765427096,/world,vicon/SUMO_11_5_2018/SUMO_11_5_2018,0.166733334483,0.619494377363,0.10447352336,-0.00898645530898,-0.0155450419835,0.380076924017,0.924780583231
1555095671789555584,251,1555095671775378995,/world,vicon/SUMO_11_5_2018/SUMO_11_5_2018,0.166735362626,0.61951093707,0.104487817029,-0.00911231279988,-0.0149340359217,0.380213417979,0.924733311347
1555095671799432191,252,1555095671785324473,/world,vicon/SUMO_11_5_2018/SUMO_11_5_2018,0.166736763895,0.619500642435,0.104500868986,-0.00891717537546,-0.0148088377262,0.380314222944,0.924695773828
1555095671809603085,253,1555095671795433230,/world,vicon/SUMO_11_5_2018/SUMO_11_5_2018,0.166733313031,0.619491144529,0.104511451298,-0.00894183233227,-0.0146228359505,0.380256923446,0.924722060121
1555095671819621990,254,1555095671805410003,/world,vicon/SUMO_11_5_2018/SUMO_11_5_2018,0.166726693239,0.619478008616,0.104502234123,-0.00899137918711,-0.0143814285693,0.380344982702,0.924689149794
1555095671829503451,255,1555095671815358332,/world,vicon/SUMO_11_5_2018/SUMO_11_5_2018,0.166722587162,0.619485413152,0.104487293672,-0.00912699635716,-0.014547585823,0.380356559354,0.924680460181
1555095671839503375,256,1555095671825362668,/world,vicon/SUMO_11_5_2018/SUMO_11_5_2018,0.166724776347,0.619492256685,0.104472130661,-0.00938133485033,-0.0144368208286,0.38047763192,0.924629839649
1555095671849529339,257,1555095671835400560,/world,vicon/SUMO_11_5_2018/SUMO_11_5_2018,0.166725440564,0.619498206332,0.104470601836,-0.00925435949062,-0.0150691199473,0.380435173033,0.924638501023
1555095671859603349,258,1555095671845389846,/world,vicon/SUMO_11_5_2018/SUMO_11_5_2018,0.166722513975,0.619488060043,0.104482035119,-0.00937679269445,-0.014731450301,0.380555867409,0.924593041241
1555095671869493729,259,1555095671855338702,/world,vicon/SUMO_11_5_2018/SUMO_11_5_2018,0.166717732732,0.619482996804,0.104494793228,-0.00912677078748,-0.0147369543224,0.380476446963,0.92462814014
1555095671879615963,260,1555095671865428144,/world,vicon/SUMO_11_5_2018/SUMO_11_5_2018,0.166708795807,0.619491690619,0.104511384179,-0.00933963505767,-0.0139043698397,0.380501051813,0.924628784586
1555095671889542851,261,1555095671875352320,/world,vicon/SUMO_11_5_2018/SUMO_11_5_2018,0.166707778589,0.619503113184,0.104524424417,-0.00944230108526,-0.0133246387796,0.380447497176,0.924658314646
1555095671899549537,262,1555095671885359726,/world,vicon/SUMO_11_5_2018/SUMO_11_5_2018,0.166715452134,0.619503944289,0.10451736993,-0.00946379956975,-0.0137851421962,0.38035235242,0.924690485709
1555095671909597243,263,1555095671895479910,/world,vicon/SUMO_11_5_2018/SUMO_11_5_2018,0.166725917465,0.619498092646,0.104499525354,-0.00941326987805,-0.0145154791334,0.380315185874,0.924695112245
1555095671919589620,264,1555095671905373981,/world,vicon/SUMO_11_5_2018/SUMO_11_5_2018,0.166740438116,0.619494572793,0.1044873635,-0.00910529466272,-0.0155750375,0.380205452465,0.92472608146
1555095671929573971,265,1555095671915366237,/world,vicon/SUMO_11_5_2018/SUMO_11_5_2018,0.16673774664,0.619490888227,0.104489304114,-0.00910222664637,-0.0155464999466,0.38035061809,0.924666893064
1555095671939533735,266,1555095671925371450,/world,vicon/SUMO_11_5_2018/SUMO_11_5_2018,0.166736397753,0.619490103124,0.104502654552,-0.00881837440394,-0.0154627177004,0.380340325132,0.924675282309
1555095671949601331,267,1555095671935410788,/world,vicon/SUMO_11_5_2018/SUMO_11_5_2018,0.166723319951,0.619496185268,0.104519264991,-0.00881031279473,-0.0147529449378,0.380558296349,0.924597270212
1555095671959580684,268,1555095671945387600,/world,vicon/SUMO_11_5_2018/SUMO_11_5_2018,0.166727181434,0.619526499949,0.10454095658,-0.00906531269055,-0.0136104300673,0.380916236018,0.924464924936
1555095671969502596,269,1555095671955362693,/world,vicon/SUMO_11_5_2018/SUMO_11_5_2018,0.166755753651,0.619559838761,0.104539563772,-0.00921835978113,-0.0134949773528,0.381289675751,0.924311143823
1555095671979698575,270,1555095671965459942,/world,vicon/SUMO_11_5_2018/SUMO_11_5_2018,0.166811182656,0.61959566286,0.104515755821,-0.00923613119275,-0.0143514437419,0.381504363359,0.924209473378
1555095671989539669,271,1555095671975365763,/world,vicon/SUMO_11_5_2018/SUMO_11_5_2018,0.166868015614,0.619621236373,0.104494008492,-0.00909401246226,-0.0151616040054,0.381585130773,0.924164602587
1555095671999408035,272,1555095671985331008,/world,vicon/SUMO_11_5_2018/SUMO_11_5_2018,0.166905666461,0.619639608608,0.104490602962,-0.00912682422734,-0.015400853878,0.381647073666,0.924134744473
1555095672009596890,273,1555095671995494347,/world,vicon/SUMO_11_5_2018/SUMO_11_5_2018,0.166911237867,0.619644558292,0.104499838602,-0.00920012543859,-0.0147728534109,0.381732475754,0.92410899652
1555095672019523890,274,1555095672005360039,/world,vicon/SUMO_11_5_2018/SUMO_11_5_2018,0.166892799859,0.619630933259,0.104511657898,-0.0092141576226,-0.0143574954378,0.381894566791,0.924048430267
1555095672029547230,275,1555095672015357513,/world,vicon/SUMO_11_5_2018/SUMO_11_5_2018,0.16687075394,0.619615800983,0.104521569411,-0.00920490541551,-0.0138968583237,0.38193020245,0.92404083649
1555095672039593561,276,1555095672025476558,/world,vicon/SUMO_11_5_2018/SUMO_11_5_2018,0.166866509531,0.619604100844,0.104515866854,-0.00912041687197,-0.0139845208039,0.382016065789,0.924004857484
1555095672049524661,277,1555095672035398247,/world,vicon/SUMO_11_5_2018/SUMO_11_5_2018,0.166879723095,0.619619107468,0.104501540084,-0.00911610425831,-0.0145632450868,0.38175020104,0.924105834059
1555095672059497601,278,1555095672045358430,/world,vicon/SUMO_11_5_2018/SUMO_11_5_2018,0.166895275185,0.619626001674,0.10447804402,-0.00896443872397,-0.0149677611371,0.381809937241,0.924076174776
1555095672069642317,279,1555095672055442476,/world,vicon/SUMO_11_5_2018/SUMO_11_5_2018,0.166905024457,0.619641300181,0.104473505663,-0.00902674948148,-0.0151243988868,0.3815857275,0.924165625264
1555095672079647680,280,1555095672065447610,/world,vicon/SUMO_11_5_2018/SUMO_11_5_2018,0.166890576691,0.619630975481,0.104476515983,-0.00894558730552,-0.0148000948295,0.381737307515,0.924109063754
1555095672089632087,281,1555095672075415504,/world,vicon/SUMO_11_5_2018/SUMO_11_5_2018,0.166874483565,0.61962079542,0.104500746565,-0.00907506148932,-0.01450239945,0.38167452242,0.92413845424
1555095672099506525,282,1555095672085357794,/world,vicon/SUMO_11_5_2018/SUMO_11_5_2018,0.16685458814,0.619607415434,0.104520314486,-0.0090080162742,-0.0141680975969,0.38189179953,0.924054529833
1555095672109688406,283,1555095672095468463,/world,vicon/SUMO_11_5_2018/SUMO_11_5_2018,0.166857304031,0.619618014696,0.104534411545,-0.00915355116951,-0.0136624011401,0.381945746358,0.924038418105
1555095672119540655,284,1555095672105357098,/world,vicon/SUMO_11_5_2018/SUMO_11_5_2018,0.166866052758,0.619634058713,0.104521187248,-0.00888547524602,-0.0143295038497,0.381917962127,0.924042414532
1555095672129619792,285,1555095672115369082,/world,vicon/SUMO_11_5_2018/SUMO_11_5_2018,0.166879728323,0.619641086456,0.104499905672,-0.00894176950392,-0.0148355482996,0.381757419501,0.924100223959
1555095672139680816,286,1555095672125386104,/world,vicon/SUMO_11_5_2018/SUMO_11_5_2018,0.166885974499,0.619636943442,0.104475184037,-0.0088072598028,-0.0154854860203,0.381559835981,0.924172453314
1555095672149619706,287,1555095672135403076,/world,vicon/SUMO_11_5_2018/SUMO_11_5_2018,0.166888724566,0.619632110305,0.104475232429,-0.00906061253568,-0.0146987553029,0.381429288327,0.924236739098
1555095672159606628,288,1555095672145399897,/world,vicon/SUMO_11_5_2018/SUMO_11_5_2018,0.16687768691,0.61962846446,0.10449652013,-0.00901003720488,-0.0140642625618,0.381533004582,0.924204296767
1555095672169484779,289,1555095672155355182,/world,vicon/SUMO_11_5_2018/SUMO_11_5_2018,0.166862247381,0.619622324584,0.104518531909,-0.00913670227528,-0.0136663245908,0.381798574636,0.92409934566
1555095672179627552,290,1555095672165445486,/world,vicon/SUMO_11_5_2018/SUMO_11_5_2018,0.16685174818,0.619619622214,0.104533986418,-0.00924914144902,-0.0137357727852,0.382072717295,0.92398388548
1555095672189633791,291,1555095672175404862,/world,vicon/SUMO_11_5_2018/SUMO_11_5_2018,0.166860164467,0.619622086059,0.104519650616,-0.00925979349847,-0.0138434526417,0.382013106693,0.924006818891
1555095672199443177,292,1555095672185353529,/world,vicon/SUMO_11_5_2018/SUMO_11_5_2018,0.166873932827,0.619631967322,0.104500212287,-0.00909550750412,-0.0143280001184,0.381909319345,0.924043966461
1555095672209698559,293,1555095672195469537,/world,vicon/SUMO_11_5_2018/SUMO_11_5_2018,0.166886182698,0.619633875866,0.104471970328,-0.00886569865874,-0.0146214410124,0.381785175956,0.924092902402
1555095672219638836,294,1555095672205395832,/world,vicon/SUMO_11_5_2018/SUMO_11_5_2018,0.166886116279,0.619633748464,0.104462539486,-0.00883125185992,-0.0151222371597,0.381843363093,0.924061130551
1555095672229546401,295,1555095672215359844,/world,vicon/SUMO_11_5_2018/SUMO_11_5_2018,0.16688211849,0.619625290766,0.104473054109,-0.00889885678466,-0.0149549037365,0.381896375539,0.924041297536
1555095672239652373,296,1555095672225392299,/world,vicon/SUMO_11_5_2018/SUMO_11_5_2018,0.166876385658,0.619629569828,0.104500445888,-0.00911640385822,-0.014394236895,0.381993005227,0.924008139078
1555095672249674633,297,1555095672235392135,/world,vicon/SUMO_11_5_2018/SUMO_11_5_2018,0.166867569791,0.619628761738,0.104520885605,-0.00922783148444,-0.0137311478306,0.382284350756,0.923896627266
1555095672259832655,298,1555095672245408639,/world,vicon/SUMO_11_5_2018/SUMO_11_5_2018,0.166871713528,0.619642389334,0.104519291786,-0.00938133687012,-0.01340591933,0.382486253874,0.923816289877
1555095672269496001,299,1555095672255342763,/world,vicon/SUMO_11_5_2018/SUMO_11_5_2018,0.166906393773,0.619660745699,0.104502523125,-0.00909574283274,-0.0143517925826,0.383011162555,0.923587431091
1555095672279619975,300,1555095672265445680,/world,vicon/SUMO_11_5_2018/SUMO_11_5_2018,0.166996654846,0.619706473347,0.104484946917,-0.00902250479646,-0.0146737014584,0.38363968439,0.923322191575
1555095672289564080,301,1555095672275365591,/world,vicon/SUMO_11_5_2018/SUMO_11_5_2018,0.167132895413,0.619797801712,0.104491428574,-0.00916779571495,-0.0141607290608,0.384139730813,0.923120843923
1555095672299416680,302,1555095672285347114,/world,vicon/SUMO_11_5_2018/SUMO_11_5_2018,0.167295309472,0.619925468304,0.104528130096,-0.00979041393657,-0.013076356082,0.384031993331,0.923175273069
1555095672309508104,303,1555095672295377656,/world,vicon/SUMO_11_5_2018/SUMO_11_5_2018,0.167502474128,0.620083002102,0.104571320714,-0.0104850180575,-0.0122161885444,0.38364986868,0.923338295207
1555095672319407110,304,1555095672305340981,/world,vicon/SUMO_11_5_2018/SUMO_11_5_2018,0.167751539594,0.620267764571,0.104601144556,-0.0107332087108,-0.0123031429392,0.383526405055,0.923385579013
1555095672329502187,305,1555095672315358103,/world,vicon/SUMO_11_5_2018/SUMO_11_5_2018,0.168089677853,0.620491378091,0.104581740196,-0.0103587394016,-0.0131815648611,0.383978548987,0.923189805394
1555095672339607605,306,1555095672325373652,/world,vicon/SUMO_11_5_2018/SUMO_11_5_2018,0.168488539195,0.620781706059,0.104536323502,-0.00977964633803,-0.0145983479866,0.38485258278,0.922810780323
1555095672349358101,307,1555095672335302959,/world,vicon/SUMO_11_5_2018/SUMO_11_5_2018,0.168931962529,0.621096432714,0.104491071662,-0.00949905231403,-0.0155652714305,0.386449870469,0.922130136122
1555095672359554827,308,1555095672345373273,/world,vicon/SUMO_11_5_2018/SUMO_11_5_2018,0.169352862615,0.621427983122,0.104483973076,-0.00948726273442,-0.0161865360682,0.388481764371,0.921265383398
1555095672369604975,309,1555095672355448861,/world,vicon/SUMO_11_5_2018/SUMO_11_5_2018,0.16979859055,0.621780968953,0.104527456525,-0.00937839851007,-0.0158450700415,0.390628125378,0.920364409927
1555095672379617339,310,1555095672365378981,/world,vicon/SUMO_11_5_2018/SUMO_11_5_2018,0.170313190703,0.622181565944,0.104583962363,-0.00937397046598,-0.0150835005203,0.392772617413,0.919464130731
1555095672389496535,311,1555095672375371407,/world,vicon/SUMO_11_5_2018/SUMO_11_5_2018,0.170912182517,0.622608162661,0.104618385824,-0.00927088374583,-0.0138744898608,0.394997811668,0.918530499234
1555095672399513565,312,1555095672385408468,/world,vicon/SUMO_11_5_2018/SUMO_11_5_2018,0.171530892919,0.623081234998,0.104623228627,-0.00907460772285,-0.0138368244827,0.396940322001,0.91769525146
1555095672409499707,313,1555095672395377820,/world,vicon/SUMO_11_5_2018/SUMO_11_5_2018,0.172174187835,0.623577115238,0.104625098791,-0.00891896464787,-0.0133968020581,0.397858399622,0.917305658772
1555095672419582011,314,1555095672405373491,/world,vicon/SUMO_11_5_2018/SUMO_11_5_2018,0.172865577938,0.624156798963,0.104639300295,-0.00893424671312,-0.0139197987064,0.398586506855,0.916981578328
1555095672429639723,315,1555095672415417389,/world,vicon/SUMO_11_5_2018/SUMO_11_5_2018,0.173600374796,0.624790272499,0.104636182662,-0.0087261864572,-0.0145677472482,0.399533966344,0.916561096789
1555095672439733133,316,1555095672425423808,/world,vicon/SUMO_11_5_2018/SUMO_11_5_2018,0.174384432595,0.625469843042,0.10462213106,-0.00859389680895,-0.0157824686627,0.401351877254,0.915747634038
1555095672449726423,317,1555095672435412999,/world,vicon/SUMO_11_5_2018/SUMO_11_5_2018,0.175193034344,0.626160679973,0.104623192023,-0.00884673982381,-0.0153634104112,0.403114470645,0.914977827257
1555095672459620179,318,1555095672445373752,/world,vicon/SUMO_11_5_2018/SUMO_11_5_2018,0.176061454242,0.626900986225,0.104662473344,-0.00912221674718,-0.0146821761829,0.404652015351,0.91430736918
1555095672469553029,319,1555095672455364198,/world,vicon/SUMO_11_5_2018/SUMO_11_5_2018,0.176971838298,0.627699490183,0.104709171645,-0.00955938473417,-0.0133056596369,0.4059195395,0.913761952063
1555095672479557806,320,1555095672465387675,/world,vicon/SUMO_11_5_2018/SUMO_11_5_2018,0.177937619474,0.628555243826,0.104689510295,-0.00910651828012,-0.0121506134686,0.407026870514,0.913289965234
1555095672489453175,321,1555095672475379194,/world,vicon/SUMO_11_5_2018/SUMO_11_5_2018,0.178955951007,0.629460299907,0.104683736266,-0.00934156793694,-0.0118250528008,0.408146338221,0.912792128489
1555095672499483813,322,1555095672485363077,/world,vicon/SUMO_11_5_2018/SUMO_11_5_2018,0.180004221164,0.630404627931,0.10465154694,-0.00864362544699,-0.0138324101866,0.40921881731,0.912290475521
1555095672509645022,323,1555095672495449272,/world,vicon/SUMO_11_5_2018/SUMO_11_5_2018,0.181109045072,0.631438469932,0.10467495569,-0.00858874765614,-0.0156008593973,0.410384941555,0.911738474753
1555095672519630132,324,1555095672505374934,/world,vicon/SUMO_11_5_2018/SUMO_11_5_2018,0.18221473075,0.632490898423,0.104674660045,-0.00846797952268,-0.0156182430206,0.41177934595,0.91111038522
1555095672529605242,325,1555095672515385129,/world,vicon/SUMO_11_5_2018/SUMO_11_5_2018,0.183420373919,0.633606025663,0.104704479642,-0.00848211110929,-0.0137710730363,0.413308137117,0.910447579562
1555095672539546941,326,1555095672525394659,/world,vicon/SUMO_11_5_2018/SUMO_11_5_2018,0.184616826195,0.634722324754,0.104711342083,-0.00848212048589,-0.0122771543198,0.414881307331,0.909753167591
